City,Lat,Lng,Max Temp,Humidity,Cloudiness,Wind Speed,Country,Date
Mataura,-46.19,168.86,66.0,67,100,10.0,NZ,1608257543
Rikitea,-23.12,-134.97,77.43,75,2,17.29,PF,1608257544
Kapaa,22.08,-159.32,80.6,69,20,14.99,US,1608257545
Ushuaia,-54.8,-68.3,42.8,75,75,29.97,AR,1608257267
Punta Arenas,-53.15,-70.92,48.2,61,100,9.17,CL,1608257548
Udachny,66.42,112.4,-31.0,81,0,4.47,RU,1608257549
Srednekolymsk,67.45,153.68,-15.29,89,100,6.46,RU,1608257550
Qaanaaq,77.48,-69.36,12.52,90,100,2.08,GL,1608257551
Kaitangata,-46.28,169.85,64.99,75,100,3.0,NZ,1608257552
Ol'ga,43.74,135.29,18.45,78,0,7.58,RU,1608257553
Le Mans,48.0,0.2,48.2,93,90,8.05,FR,1608257407
Yellowknife,62.46,-114.35,-36.0,72,20,8.05,CA,1608257373
Buala,-8.14,159.59,85.42,72,96,6.64,SB,1608257556
Atuona,-9.8,-139.03,78.84,74,57,15.3,PF,1608257557
Port Alfred,-33.59,26.89,66.99,87,88,1.99,ZA,1608257558
Lompoc,34.64,-120.46,53.6,76,1,13.87,US,1608257561
Saldanha,-33.01,17.94,60.8,67,0,8.05,ZA,1608257562
Castro,-24.79,-50.01,63.19,96,68,2.08,BR,1608257563
Opuwo,-18.06,13.84,64.92,52,51,2.64,NA,1608257564
New Norfolk,-42.78,147.06,64.0,69,67,1.99,AU,1608257565
Assiut,27.18,31.18,52.41,80,0,5.79,EG,1608257543
General Roca,-39.03,-67.58,75.2,29,0,6.31,AR,1608257567
Adrar,20.5,-10.07,59.97,43,0,9.44,MR,1608257569
Upernavik,72.79,-56.15,11.03,83,100,2.42,GL,1608257570
Busselton,-33.65,115.33,73.99,48,0,3.0,AU,1608257572
Margate,51.38,1.39,51.01,82,82,8.99,GB,1608257574
Horta,38.53,-28.63,62.01,80,100,20.74,PT,1608257420
Barrow,71.29,-156.79,-9.4,69,1,21.92,US,1608257576
Jalu,29.03,21.55,54.0,77,100,5.7,LY,1608257578
Bethel,41.37,-73.41,23.0,73,90,3.36,US,1608257579
Kahului,20.89,-156.47,80.6,65,40,19.46,US,1608257560
Pisco,-13.7,-76.22,68.0,82,0,17.22,PE,1608257581
Talcahuano,-36.72,-73.12,53.6,93,0,9.17,CL,1608257582
Pedernales,18.04,-71.74,76.32,71,0,0.69,DO,1608257585
Hobart,-42.88,147.33,64.0,72,75,10.29,AU,1608257586
College,64.86,-147.8,-7.6,56,40,8.05,US,1608257587
Aketi,2.74,23.78,70.27,64,100,2.13,CD,1608257588
Ngaoundéré,7.32,13.58,62.44,30,87,2.19,CM,1608257589
Tuktoyaktuk,69.45,-133.04,-16.6,75,75,11.41,CA,1608257590
Korem,12.51,39.52,44.46,78,39,1.95,ET,1608257591
Seymchan,62.88,152.43,-20.38,86,100,1.52,RU,1608257593
Asău,46.43,26.4,36.0,100,90,3.36,RO,1608257595
Abu Samrah,35.3,37.18,48.36,87,0,2.15,SY,1608257599
Tsiroanomandidy,-18.77,46.03,70.7,83,82,1.19,MG,1608257600
Agapovka,53.3,59.13,21.2,79,90,15.66,RU,1608257601
Kosh-Agach,50.0,88.67,-8.82,84,100,0.51,RU,1608257602
Esterhazy,50.65,-102.08,37.4,64,100,18.34,CA,1608257604
Puerto Ayora,-0.74,-90.35,71.01,94,16,1.99,EC,1608257605
Keetmanshoop,-26.58,18.13,64.92,41,0,5.66,NA,1608257543
Cidreira,-30.18,-50.21,71.92,85,1,16.13,BR,1608257607
Badvel,14.75,79.05,71.01,90,87,2.19,IN,1608257608
Verbivka,49.42,35.53,32.92,95,100,3.51,UA,1608257609
Ust'-Kulom,61.69,53.69,7.07,92,46,8.19,RU,1608257610
Tura,25.52,90.22,59.83,58,0,1.5,IN,1608257611
Morón,-34.65,-58.62,78.01,57,0,1.01,AR,1608257612
Chara,56.91,118.26,-20.24,72,30,1.74,RU,1608257613
Jamestown,42.1,-79.24,21.99,92,90,6.93,US,1608257614
Mount Isa,-20.73,139.5,95.0,39,40,8.05,AU,1608257616
Kandrian,-6.22,149.55,85.26,72,41,5.48,PG,1608257617
Hurghada,27.26,33.81,61.45,71,0,15.08,EG,1608257366
Lebu,-37.62,-73.65,54.41,89,21,17.05,CL,1608257619
Lagoa,39.05,-27.98,61.7,77,95,27.89,PT,1608257620
Sālūr,18.53,83.22,71.11,65,0,1.99,IN,1608257621
Esperance,-33.87,121.9,68.0,49,75,8.05,AU,1608257622
Thinadhoo,0.53,72.93,82.15,70,94,8.3,MV,1608257623
Norman Wells,65.28,-126.83,-49.0,63,20,2.24,CA,1608257624
Mahébourg,-20.41,57.7,77.0,83,40,16.11,MU,1608257625
Koppa,13.53,75.36,63.95,91,1,4.09,IN,1608257628
Vaini,-21.2,-175.2,75.2,88,90,12.75,TO,1608257629
Bredasdorp,-34.53,20.04,53.6,87,0,3.36,ZA,1608257630
Forsytheganj,52.63,29.73,32.04,98,100,4.92,BY,1608257631
Paamiut,61.99,-49.67,29.77,94,100,20.92,GL,1608257632
Bluff,-46.6,168.33,66.0,67,99,10.0,NZ,1608257633
Gornopravdinsk,60.05,69.9,16.47,97,100,7.63,RU,1608257634
Bambous Virieux,-20.34,57.76,77.0,83,40,16.11,MU,1608257635
Albany,42.6,-73.97,19.4,85,90,8.05,US,1608257425
Bāndarban,22.2,92.23,66.2,82,0,12.75,BD,1608257371
Minas,-34.38,-55.24,75.0,69,0,8.05,UY,1608257638
Jan Kempdorp,-27.92,24.83,67.75,74,0,9.28,ZA,1608257639
Thompson,55.74,-97.86,-5.8,83,90,5.82,CA,1608257640
Talnakh,69.49,88.4,-0.4,77,40,22.37,RU,1608257642
Libenge,3.65,18.63,70.66,71,100,2.37,CD,1608257644
Hilo,19.73,-155.09,77.0,73,75,3.36,US,1608257645
Guerrero Negro,27.98,-114.06,57.22,66,29,7.96,MX,1608257646
Katsuura,35.13,140.3,52.0,61,20,4.7,JP,1608257534
Carnarvon,-24.87,113.63,77.0,73,0,16.11,AU,1608257650
Makkah al Mukarramah,21.43,39.83,68.61,62,0,3.58,SA,1608257440
Roald,62.58,6.13,46.4,70,0,6.93,NO,1608257652
Yatou,37.15,122.38,32.0,92,100,18.61,CN,1608257653
Glenwood Springs,39.55,-107.32,30.99,79,90,24.16,US,1608257412
Los Llanos de Aridane,28.66,-17.92,62.6,67,0,10.29,ES,1608257656
Brae,60.4,-1.35,48.2,87,100,20.8,GB,1608257434
Kalmunai,7.42,81.82,78.31,83,94,7.27,LK,1608257658
Alacranes,22.77,-81.57,75.2,94,40,12.75,CU,1608257659
Yoichi,43.2,140.77,30.2,58,75,13.87,JP,1608257660
Arkhangelsk,64.54,40.54,5.0,84,20,2.98,RU,1608257661
Ribeira Grande,38.52,-28.7,62.35,79,100,20.96,PT,1608257662
Waingapu,-9.66,120.26,84.83,70,100,5.64,ID,1608257664
Bugiri,0.57,33.74,63.68,81,20,2.44,UG,1608257665
Dahuk,36.87,42.99,46.78,79,5,1.72,IQ,1608257667
Ostrovnoy,68.05,39.51,17.85,94,100,6.44,RU,1608257668
Tazovsky,67.47,78.7,7.18,95,100,11.14,RU,1608257669
George Town,5.41,100.34,78.8,94,20,2.24,MY,1608257465
Palm Coast,29.59,-81.21,48.99,87,1,6.93,US,1608257427
Bideford,51.02,-4.2,55.0,97,100,13.0,GB,1608257672
Leningradskiy,69.38,178.42,10.17,94,100,13.15,RU,1608257673
Hong Kong,22.29,114.16,60.01,74,95,1.01,HK,1608257567
Cape Town,-33.93,18.42,64.4,63,0,18.34,ZA,1608257545
Kiryat Gat,31.61,34.76,55.99,100,21,1.32,IL,1608257676
Whitianga,-36.83,175.7,68.18,67,45,8.34,NZ,1608257677
Nioro,13.35,-15.75,72.43,21,53,7.23,GM,1608257678
Kalabo,-14.97,22.68,67.96,93,100,5.26,ZM,1608257680
Chokurdakh,70.63,147.92,-5.28,91,99,13.24,RU,1608257677
Qaqortoq,60.72,-46.03,30.2,54,24,3.36,GL,1608257683
Saskylakh,71.92,114.08,-33.48,82,2,4.09,RU,1608257684
Harar,9.31,42.13,50.2,45,5,4.07,ET,1608257685
Raudeberg,61.99,5.14,46.99,74,31,15.86,NO,1608257686
Nikolskoye,59.7,30.79,30.99,92,90,6.71,RU,1608257687
Kadoma,34.73,135.58,51.01,56,75,4.7,JP,1608257688
Cayenne,4.93,-52.33,75.2,100,100,10.96,GF,1608257689
Saint Paul Harbor,57.79,-152.41,33.8,86,90,18.34,US,1608257690
Nelson Bay,-32.72,152.15,91.0,55,92,17.22,AU,1608257691
Haines Junction,60.75,-137.51,-4.0,83,100,2.91,CA,1608257692
Saint-Philippe,-21.36,55.77,75.2,78,75,4.7,RE,1608257694
Bartica,6.4,-58.62,77.0,100,75,2.24,GY,1608257695
Port Lincoln,-34.73,135.87,62.13,52,85,7.4,AU,1608257514
Aljezur,37.32,-8.8,48.0,100,0,4.0,PT,1608257488
Olafsvik,64.89,-23.71,37.31,80,99,35.12,IS,1608257698
Djibo,14.1,-1.63,75.09,20,7,8.28,BF,1608257699
Egvekinot,66.32,-179.17,-0.94,89,100,12.15,RU,1608257700
Tiksi,71.69,128.87,-16.64,89,100,4.94,RU,1608257701
Popondetta,-8.75,148.25,84.96,79,94,5.17,PG,1608257702
Hermanus,-34.42,19.23,57.99,85,0,12.57,ZA,1608257703
Punto Fijo,11.7,-70.2,80.44,77,7,22.35,VE,1608257706
La Brea,15.8,-85.97,73.58,90,9,2.24,HN,1608257708
Mossamedes,-15.2,12.15,65.66,79,74,5.41,AO,1608257710
Renče,45.89,13.67,46.0,93,75,1.12,SI,1608257711
Columbia,34.0,-81.03,44.6,81,90,5.82,US,1608257635
Pochutla,15.74,-96.47,77.0,78,5,2.26,MX,1608257714
Atar,20.52,-13.05,63.45,44,0,10.65,MR,1608257715
Saint-Pierre,-21.34,55.48,75.2,78,75,4.7,RE,1608257716
Bereda,43.27,-7.54,50.0,87,88,10.0,ES,1608257717
Khatanga,71.97,102.5,-24.59,80,0,11.25,RU,1608257718
Norrtälje,59.76,18.7,46.0,92,100,5.99,SE,1608257646
Kulhudhuffushi,6.62,73.07,81.37,68,0,1.43,MV,1608257720
Hithadhoo,-0.6,73.08,81.19,77,29,12.33,MV,1608257675
Lodwar,3.12,35.6,77.68,44,82,5.75,KE,1608257722
Yar-Sale,66.83,70.83,-6.09,88,97,18.77,RU,1608257723
Mar del Plata,-38.0,-57.56,77.0,57,0,11.41,AR,1608257490
Gander,48.97,-54.59,28.4,100,90,6.93,CA,1608257725
Kabinda,-6.13,24.48,66.9,94,100,0.83,CD,1608257727
Pundaguitan,6.37,126.17,79.74,82,100,14.99,PH,1608257728
Guayaramerín,-10.84,-65.36,78.87,70,37,1.39,BO,1608257729
Matamoros,25.53,-103.25,62.6,20,5,3.15,MX,1608257730
Kavieng,-2.57,150.8,85.84,67,90,8.08,PG,1608257731
Noceto,44.81,10.17,46.0,95,97,0.29,IT,1608257732
Moussoro,13.64,16.49,66.87,26,0,12.66,TD,1608257733
Walvis Bay,-22.96,14.51,61.0,87,71,5.82,NA,1608257734
Port Elizabeth,-33.92,25.57,66.2,82,90,2.24,ZA,1608257735
Wanning,18.8,110.4,66.02,86,97,15.97,CN,1608257736
Loíza,18.43,-65.88,78.8,83,20,4.7,PR,1608257737
Itigi,-5.7,34.48,63.86,83,17,0.85,TZ,1608257738
Teya,60.38,92.63,9.07,91,100,10.6,RU,1608257740
Sørland,67.67,12.69,34.29,88,100,16.33,NO,1608257741
Bathsheba,13.22,-59.52,80.6,78,20,19.46,BB,1608257673
Freeport,40.66,-73.58,27.0,73,20,14.99,US,1608257467
Arlit,18.74,7.39,66.94,24,16,6.53,NE,1608257744
Ahipara,-35.17,173.17,70.21,63,3,1.9,NZ,1608257745
Nizwá,22.93,57.53,52.99,67,94,1.23,OM,1608257747
Avarua,-21.21,-159.78,80.6,83,100,8.05,CK,1608257748
San Mateo del Mar,16.2,-95.0,77.9,67,0,34.07,MX,1608257749
Fairbanks,64.84,-147.72,-7.6,47,40,8.05,US,1608257750
Wollongong,-34.43,150.88,88.0,58,100,5.01,AU,1608257751
Butaritari,3.07,172.79,81.21,80,94,13.09,KI,1608257753
Usoke,-5.17,32.35,65.1,93,97,3.0,TZ,1608257754
Nome,64.5,-165.41,-0.4,59,1,6.93,US,1608257689
Torres,-29.34,-49.73,69.91,92,81,7.05,BR,1608257487
Hambantota,6.12,81.12,73.4,100,20,2.24,LK,1608257673
Geraldton,-28.77,114.6,91.4,26,0,18.34,AU,1608257761
Biggar,55.62,-3.52,53.01,82,100,5.99,GB,1608257762
Chui,-33.7,-53.46,67.59,92,0,9.98,UY,1608257763
Tasiilaq,65.61,-37.64,21.2,67,0,4.99,GL,1608257765
George,-33.96,22.46,62.6,93,86,1.12,ZA,1608257766
Oak Harbor,48.29,-122.64,50.0,76,75,19.46,US,1608257767
Saint Anthony,45.02,-93.22,28.0,73,40,5.82,US,1608257768
Pushkino,56.02,37.87,32.0,97,75,11.18,RU,1608257769
Bengkulu,-3.8,102.27,79.77,75,100,2.35,ID,1608257672
Najrān,17.49,44.13,50.0,37,0,2.24,SA,1608257771
Coquimbo,-29.95,-71.34,57.2,82,71,5.82,CL,1608257772
Zalesovo,53.99,84.74,11.68,94,93,7.43,RU,1608257773
Hobyo,5.35,48.53,78.28,80,94,13.62,SO,1608257685
Kumul,42.8,93.45,15.96,76,23,1.3,CN,1608257775
Kibala,9.11,18.35,64.4,77,0,3.09,TD,1608257777
Plattsburgh,44.7,-73.45,15.8,66,1,5.82,US,1608257778
Vaitape,-16.52,-151.75,80.94,77,76,14.56,PF,1608257779
Yantal',56.85,105.25,2.61,91,100,5.39,RU,1608257781
Saint George,37.1,-113.58,50.0,31,90,11.41,US,1608257693
Asmara,15.33,38.93,48.34,96,82,3.71,ER,1608257783
Severo-Kuril'sk,50.68,156.12,32.54,91,17,6.08,RU,1608257784
Hofn,64.25,-15.21,40.19,90,100,17.81,IS,1608257785
Helena,46.59,-112.04,37.4,55,1,8.05,US,1608257570
Taunggyi,20.78,97.03,62.42,70,0,1.19,MM,1608257790
Kargat,55.2,80.28,12.58,94,100,15.99,RU,1608257791
San Patricio,28.02,-97.52,54.0,71,1,6.93,US,1608257792
Izhma,65.01,53.91,4.05,94,9,5.28,RU,1608257793
Deputatsky,69.3,139.9,-16.58,90,100,2.35,RU,1608257794
Tsimmerbude,54.67,20.13,41.0,93,90,11.18,RU,1608257795
Mount Gambier,-37.83,140.77,62.6,39,90,11.41,AU,1608257796
Lorengau,-2.02,147.27,86.31,69,95,7.63,PG,1608257798
Prince Rupert,54.32,-130.32,41.0,86,90,18.34,CA,1608257715
Nelson,-41.28,173.28,79.0,53,0,5.01,NZ,1608257800
Riyadh,24.69,46.72,55.4,66,0,5.82,SA,1608257606
Sobolevo,54.43,31.9,32.88,96,100,5.66,RU,1608257802
San Juan,-31.54,-68.54,84.7,37,1,10.0,AR,1608257804
Marsaxlokk,35.84,14.54,59.0,82,40,5.82,MT,1608257807
Plaster Rock,46.91,-67.39,6.8,71,1,5.82,CA,1608257808
Kruisfontein,-34.0,24.73,64.99,91,64,1.99,ZA,1608257809
Dikson,73.51,80.55,-22.47,86,100,21.92,RU,1608257811
Shitkino,56.37,98.35,19.33,96,100,7.49,RU,1608257812
Klaksvík,62.23,-6.59,42.8,100,51,11.41,FO,1608257813
Siderno,38.28,16.3,51.8,87,85,4.7,IT,1608257814
Touros,-5.2,-35.46,80.6,78,75,12.75,BR,1608257754
Tuatapere,-46.13,167.68,64.99,68,100,8.99,NZ,1608257816
Constitución,-35.33,-72.42,53.47,90,100,1.81,CL,1608257618
Cabo San Lucas,22.89,-109.91,69.8,64,75,9.17,MX,1608257659
São João da Barra,-21.64,-41.05,76.46,84,100,19.8,BR,1608257820
Valpoi,15.53,74.14,75.2,94,20,6.93,IN,1608257821
Singaparna,-7.35,108.11,78.69,73,100,1.43,ID,1608257822
Medicine Hat,50.05,-110.67,35.6,74,90,17.22,CA,1608257797
Chengzhong,30.95,113.55,41.0,56,8,2.24,CN,1608257824
Richards Bay,-28.78,32.04,72.59,85,100,2.06,ZA,1608257825
Sisimiut,66.94,-53.67,17.62,93,100,3.94,GL,1608257826
Arraial do Cabo,-22.97,-42.03,78.8,74,75,18.34,BR,1608257827
Toguchin,55.24,84.39,15.03,92,100,14.81,RU,1608257828
Beringovskiy,63.05,179.32,21.69,97,100,23.02,RU,1608257829
Fukuechō,32.69,128.84,48.2,57,75,14.99,JP,1608257830
Nouadhibou,20.93,-17.03,64.4,77,0,18.34,MR,1608257832
Sitka,57.05,-135.33,39.2,86,90,21.92,US,1608257833
Martaban,16.53,97.61,79.45,74,64,5.3,MM,1608257834
Mandurah,-32.55,115.7,79.0,38,0,13.87,AU,1608257835
La Santisima Trinidad,-14.83,-64.9,78.67,70,88,2.51,BO,1608257836
Saint-Joseph,-21.37,55.62,75.2,78,75,4.7,RE,1608257838
São Filipe,14.9,-24.5,71.98,75,1,15.08,CV,1608257839
Boffa,10.17,-14.03,77.22,84,99,2.28,GN,1608257841
Batemans Bay,-35.72,150.18,78.01,47,61,7.0,AU,1608257842
Isangel,-19.55,169.27,84.2,66,75,5.82,VU,1608257843
Kidal,18.44,1.41,68.54,25,73,3.76,ML,1608257844
Bela,25.93,81.98,46.51,54,0,7.36,IN,1608257845
Charters Towers,-20.1,146.27,93.94,37,100,3.56,AU,1608257846
Alice Springs,-23.7,133.88,89.6,24,0,19.46,AU,1608257848
Te Anau,-45.42,167.72,65.41,54,100,10.94,NZ,1608257849
Barcelona,41.39,2.16,59.0,93,75,5.82,ES,1608257717
Schitu-Goleşti,45.2,25.0,31.35,95,6,0.78,RO,1608257851
Gemeente Terneuzen,51.28,3.84,46.0,84,60,5.99,NL,1608257852
Ayapel,8.31,-75.14,76.5,91,100,3.91,CO,1608257854
Clyde River,70.47,-68.59,-13.0,83,1,1.5,CA,1608257855
Chuncheng,22.17,111.79,61.0,51,69,7.94,CN,1608257856
Alugan,12.22,125.48,81.07,82,100,22.24,PH,1608257857
Grottammare,42.99,13.86,46.99,93,87,5.82,IT,1608257858
Tomatlán,19.93,-105.25,67.35,91,26,1.92,MX,1608257859
Rawson,-43.3,-65.1,63.59,48,4,10.02,AR,1608257860
Soure,-0.72,-48.52,80.55,83,17,11.41,BR,1608257861
Eastbourne,50.77,0.28,52.0,90,99,5.99,GB,1608257862
Tokur,53.13,132.9,-16.13,87,100,1.45,RU,1608257863
Laas,46.62,10.7,24.8,79,5,4.7,IT,1608257864
Vrangel',42.73,133.08,21.76,82,10,18.3,RU,1608257852
Pevek,69.7,170.31,5.94,89,45,10.36,RU,1608257672
Kitimat,54.05,-128.65,35.01,95,100,5.03,CA,1608257651
Pozo Colorado,-23.49,-58.8,77.38,84,0,3.96,PY,1608257873
Santa Catarina de Tepehuanes,25.35,-105.73,48.02,49,0,5.82,MX,1608257874
Saint-Louis,16.33,-15.0,71.85,25,85,11.48,SN,1608257875
Kismayo,-0.36,42.55,77.72,84,0,10.22,SO,1608257876
Turukhansk,65.82,87.98,7.02,94,100,17.2,RU,1608257878
Kota Belud,6.35,116.43,84.2,74,20,2.24,MY,1608257879
Wanaka,-44.7,169.15,70.0,43,100,8.99,NZ,1608257880
Arica,-18.48,-70.3,68.0,72,0,4.7,CL,1608257881
Cockburn Town,21.46,-71.14,77.0,88,40,4.7,TC,1608257882
Manggar,-2.88,108.27,82.8,74,100,11.81,ID,1608257883
Bariloche,-41.15,-71.31,60.8,44,40,10.29,AR,1608257884
Hirara,24.8,125.28,75.2,78,20,9.17,JP,1608257885
Sinnamary,5.38,-52.95,78.51,86,100,11.32,GF,1608257886
Laranjal Paulista,-23.05,-47.84,73.99,81,100,5.99,BR,1608257888
Verkhnetulomskiy,68.61,31.8,-9.4,83,40,2.24,RU,1608257889
Yei,4.09,30.68,68.5,36,52,1.77,SS,1608257890
Zyryanka,65.75,150.85,-15.38,89,100,3.56,RU,1608257891
Iqaluit,63.75,-68.51,3.2,71,90,14.99,CA,1608257892
Ivanovskaya,55.28,39.12,33.8,80,75,13.42,RU,1608257893
Khorramshahr,30.44,48.17,57.2,87,0,4.7,IR,1608257894
Ponta do Sol,32.67,-17.1,60.8,77,20,2.24,PT,1608257895
Emerald,-23.53,148.17,93.99,46,3,6.93,AU,1608257792
Alibag,18.64,72.88,77.0,69,0,8.05,IN,1608257897
Hasaki,35.73,140.83,52.0,36,20,3.36,JP,1608257898
Solnechnyy,50.72,136.63,-2.04,87,100,2.19,RU,1608257900
Sambava,-14.27,50.17,75.52,84,79,9.57,MG,1608257901
Alofi,-19.06,-169.92,80.6,83,90,9.17,NU,1608257902
Quesnel,53.0,-122.5,32.0,95,90,2.24,CA,1608257705
Puerto del Rosario,28.5,-13.86,64.4,63,75,13.87,ES,1608257652
Faanui,-16.48,-151.75,80.08,78,74,14.58,PF,1608257905
Shimoda,34.67,138.95,51.8,50,20,6.93,JP,1608257697
Wajima,37.4,136.9,33.8,100,75,1.12,JP,1608257907
Takahagi,36.72,140.72,46.99,44,4,3.0,JP,1608257908
Trairi,-3.28,-39.27,80.06,78,100,9.13,BR,1608257909
Kavaratti,10.57,72.64,81.86,73,90,9.42,IN,1608257675
Yenagoa,4.92,6.26,75.61,95,68,3.94,NG,1608257911
Harper,4.38,-7.72,78.66,86,4,7.76,LR,1608257913
Okhotsk,59.38,143.3,-11.81,83,0,16.67,RU,1608257914
Afuá,-0.16,-50.39,77.36,89,97,6.11,BR,1608257915
Simpang,-1.27,104.08,75.79,92,100,3.74,ID,1608257916
Vila Franca do Campo,37.72,-25.43,60.8,100,75,16.11,PT,1608257917
Mana,5.66,-53.78,78.17,88,72,9.86,GF,1608257918
Cukai,4.25,103.42,75.2,100,40,2.24,MY,1608257831
Sorong,-0.88,131.25,83.73,73,99,2.51,ID,1608257920
Beisfjord,68.38,17.6,30.2,58,100,17.22,NO,1608257921
Provideniya,64.38,-173.3,12.2,85,90,29.08,RU,1608257923
Lavrentiya,65.58,-171.0,7.14,91,100,24.14,RU,1608257726
Aykhal,66.0,111.5,-31.0,81,0,4.47,RU,1608257926
Rio de Janeiro,-22.9,-43.21,82.99,88,40,3.36,BR,1608257927
Souillac,-20.52,57.52,77.0,83,40,16.11,MU,1608257698
Yeppoon,-23.13,150.73,93.2,41,40,6.93,AU,1608257929
Savonlinna,61.87,28.88,23.0,92,90,6.93,FI,1608257930
Nkhotakota,-12.93,34.3,74.05,82,93,3.91,MW,1608257932
Jumla,29.27,82.18,34.32,51,0,3.98,NP,1608257681
Cherskiy,68.75,161.3,-24.05,87,41,4.54,RU,1608257935
Sal Rei,16.18,-22.92,69.8,77,75,17.22,CV,1608257936
Muhos,64.81,25.99,12.99,85,0,10.29,FI,1608257937
Camaná,-16.62,-72.71,67.66,76,91,5.06,PE,1608257938
Aktyubinskiy,54.81,52.81,16.27,98,98,12.1,RU,1608257940
Kazachinskoye,57.7,93.28,15.84,96,100,7.96,RU,1608257941
Binghamton,42.1,-75.92,19.4,85,90,6.93,US,1608257943
Ancud,-41.87,-73.82,54.0,81,0,5.82,CL,1608257945
Codrington,-38.27,141.97,59.5,54,50,11.27,AU,1608257946
Port Maria,18.37,-76.89,73.0,96,15,5.01,JM,1608257948
Bowen,-20.02,148.23,91.4,52,10,9.17,AU,1608257949
De Aar,-30.65,24.01,66.6,63,0,15.64,ZA,1608257950
Eydhafushi,5.1,73.07,82.06,71,10,6.44,MV,1608257951
Gamba,-2.65,10.0,74.73,89,100,4.5,GA,1608257952
Giresun Province,40.5,38.5,50.0,87,75,5.82,TR,1608257954
Torbay,47.67,-52.73,32.0,92,90,3.36,CA,1608257955
Kiruna,67.86,20.23,17.6,85,100,13.87,SE,1608257673
Yulara,-25.24,130.99,82.4,42,75,16.11,AU,1608257957
Zihuatanejo,17.63,-101.55,78.8,78,5,2.24,MX,1608257958
Tarakan,3.3,117.63,79.65,82,100,4.63,ID,1608257659
Belmonte,-15.86,-38.88,77.0,83,75,5.82,BR,1608257961
Westport,41.14,-73.36,25.0,73,75,4.7,US,1608257962
Doha,25.29,51.53,69.8,82,0,4.7,QA,1608257954
Purpe,64.48,76.69,-2.2,92,69,14.92,RU,1608257965
San Fernando del Valle de Catamarca,-28.47,-65.79,66.99,76,2,1.99,AR,1608257923
Birao,10.28,22.79,62.19,30,6,7.14,CF,1608257967
Marsh Harbour,26.54,-77.06,75.7,83,0,14.2,BS,1608257969
Anito,12.45,125.29,80.91,83,100,18.23,PH,1608257970
Narsaq,60.92,-46.05,30.2,54,19,3.36,GL,1608257971
Dunedin,-45.87,170.5,61.0,81,100,18.01,NZ,1608257713
Bairiki Village,1.33,172.98,86.0,74,20,12.75,KI,1608257973
Antalaha,-14.9,50.28,74.5,83,32,6.53,MG,1608257974
Santoshpur,22.53,88.27,57.2,87,0,10.16,IN,1608257975
Srandakan,-7.94,110.25,78.17,87,96,10.2,ID,1608257976
Bacalan,11.55,122.08,80.28,80,100,19.53,PH,1608257978
Pitimbu,-7.47,-34.81,78.8,83,20,5.82,BR,1608257979
Sri Aman,1.24,111.46,78.8,88,40,3.36,MY,1608257981
Luanda,-8.84,13.23,75.2,83,75,4.7,AO,1608257982
Omboué,-1.57,9.26,75.07,91,100,4.18,GA,1608257983
Cayce,33.97,-81.07,44.6,81,90,6.93,US,1608257984
Port Hardy,50.7,-127.42,44.6,93,90,4.7,CA,1608257703
Port Macquarie,-31.43,152.92,96.01,50,24,1.01,AU,1608257981
Honiara,-9.43,159.95,86.22,72,39,6.76,SB,1608257988
Berdigestyakh,62.1,126.7,-33.74,82,100,4.16,RU,1608257990
Vilhena,-12.74,-60.15,74.14,73,1,1.72,BR,1608257772
Fortuna,40.6,-124.16,46.0,93,20,5.82,US,1608257992
Lüderitz,-26.65,15.16,62.6,82,0,16.11,NA,1608257994
Taku,39.02,117.65,28.4,30,0,15.66,CN,1608257995
Zapolyarnyy,69.42,30.81,1.4,84,0,18.34,RU,1608257997
Empalme,27.97,-110.82,64.4,68,40,8.05,MX,1608257998
Monterey,36.25,-121.25,41.0,97,0,7.14,US,1608257999
Bumbuna,9.05,-11.73,70.92,89,85,1.34,SL,1608258000
Kilindoni,-7.91,39.67,80.82,76,10,8.23,TZ,1608258002
Banda Aceh,5.56,95.32,80.92,75,99,9.08,ID,1608258005
Vardø,70.37,31.11,26.89,89,15,19.73,NO,1608258006
Gravdal,68.12,13.5,33.06,87,100,12.62,NO,1608258007
Goundi,9.36,17.37,67.64,25,90,3.04,TD,1608258008
Broken Hill,-31.95,141.43,68.0,32,0,16.11,AU,1608258009
Winburg,-28.52,27.01,62.73,71,96,11.7,ZA,1608258011
Murdochville,48.96,-65.5,17.6,85,91,10.29,CA,1608258012
Port-Cartier,50.03,-66.87,12.2,72,0,5.82,CA,1608258013
Tilichiki,60.47,166.1,3.42,94,100,11.27,RU,1608258014
Tabou,4.42,-7.35,78.3,86,33,8.16,CI,1608258015
Bumba,2.18,22.47,73.08,79,95,2.75,CD,1608258016
Maryville,35.76,-83.97,33.8,69,90,5.82,US,1608257769
Chirongui,-12.93,45.15,77.0,88,0,3.36,YT,1608258019
Bang Saphan,11.21,99.51,77.0,94,89,1.12,TH,1608258020
Broome,42.25,-75.83,19.4,85,90,6.93,US,1608258021
Soe,-9.86,124.28,76.5,83,100,6.62,ID,1608258022
Paris,48.85,2.35,48.99,100,90,8.05,FR,1608257739
Kutum,14.2,24.67,47.5,49,13,5.55,SD,1608258025
Poya,-21.35,165.15,82.63,54,95,7.47,NC,1608258026
Lokoja,7.8,6.74,76.82,67,9,1.5,NG,1608258027
Wakkanai,45.41,141.67,24.8,58,75,26.4,JP,1608258029
Nan,18.83,100.67,64.4,93,0,3.36,TH,1608258030
Mocuba,-16.84,36.99,72.77,95,100,2.66,MZ,1608258031
Juneau,58.3,-134.42,35.6,94,90,16.11,US,1608257837
Defiance,41.33,-84.45,28.4,86,90,3.51,US,1608258034
Hamilton,39.18,-84.53,33.01,86,90,8.05,US,1608258010
East London,-33.02,27.91,70.16,76,99,4.92,ZA,1608258036
Smithers,54.78,-127.17,30.2,92,90,2.24,CA,1608258037
Jacqueville,5.21,-4.41,80.6,94,40,5.82,CI,1608258038
Vestmannaeyjar,63.44,-20.27,41.34,68,71,8.63,IS,1608258040
Rast,43.88,23.28,37.0,81,90,4.7,RO,1608258041
Sémbé,1.65,14.58,70.79,85,38,3.6,CG,1608258042
Meulaboh,4.14,96.13,78.85,83,96,5.5,ID,1608258043
Cairns,-16.92,145.77,91.99,62,82,8.05,AU,1608257872
Dingle,11.0,122.67,78.01,89,100,13.89,PH,1608258045
Lensk,60.73,114.93,-4.32,88,100,6.13,RU,1608258048
Kuopio,62.89,27.68,19.4,92,90,9.17,FI,1608258049
Warmbad,-28.45,18.73,64.76,31,0,5.39,NA,1608258051
Gurkovo,42.67,25.8,41.0,100,90,4.7,BG,1608258052
Elliot,-31.33,27.85,57.02,95,49,1.68,ZA,1608258054
Oistins,13.07,-59.53,80.6,78,20,19.46,BB,1608258055
Kisi,9.08,3.85,70.66,22,76,4.16,NG,1608257870
Cuiluan,47.72,128.65,-1.25,76,6,10.45,CN,1608258058
Ambilobe,-13.2,49.05,74.19,88,100,2.13,MG,1608258060
Mae Chan,20.15,99.85,75.0,100,81,1.1,TH,1608258061
Kinel',53.23,50.65,26.6,86,75,8.95,RU,1608258062
Korla,41.76,86.15,16.39,89,0,1.36,CN,1608258025
Maltahöhe,-24.83,16.98,70.56,23,0,15.79,NA,1608258064
Pacific Grove,36.62,-121.92,52.0,76,90,6.93,US,1608258065
Longyearbyen,78.22,15.64,12.2,66,75,24.16,SJ,1608258068
Garoowe,8.41,48.48,73.67,74,97,12.8,SO,1608258070
Saint-Augustin,51.23,-58.65,25.3,94,100,8.01,CA,1608258071
Rodolfo Sánchez Taboada,31.72,-116.57,59.0,84,69,2.13,MX,1608258072
Coahuayana Viejo,18.73,-103.68,71.6,68,40,1.3,MX,1608258073
Khani,41.96,42.96,42.8,100,89,2.24,GE,1608258074
Oga,46.46,10.35,41.0,92,0,2.24,IT,1608258075
Valle del Guamuez,0.45,-76.92,71.24,93,91,1.16,CO,1608258076
Kerrobert,51.92,-109.13,15.8,78,90,27.51,CA,1608258077
Sosnovo-Ozerskoye,52.52,111.54,-8.09,90,100,8.41,RU,1608258079
Khandyga,62.67,135.6,-44.23,78,100,2.06,RU,1608258080
Peniche,39.36,-9.38,48.99,92,75,9.46,PT,1608258081
Berlevåg,70.86,29.09,20.66,92,30,19.04,NO,1608258083
St. George's,12.06,-61.75,80.6,78,20,10.29,GD,1608258085
Effingham County,32.37,-81.33,42.8,70,90,13.87,US,1608258086
Karratha,-20.74,116.85,96.39,32,0,3.49,AU,1608258087
Sabang,5.89,95.32,80.82,79,100,18.28,ID,1608258088
Topolobampo,25.6,-109.05,66.2,59,5,5.82,MX,1608258089
Miyako,39.64,141.95,38.19,64,45,4.21,JP,1608258091
Oudtshoorn,-33.59,22.2,62.6,93,35,1.12,ZA,1608258092
Zhezkazgan,47.8,67.71,2.17,92,43,6.2,KZ,1608258093
Ngunguru,-35.62,174.5,75.0,54,12,10.0,NZ,1608258094
Portadown,54.42,-6.44,52.0,93,75,9.17,GB,1608258095
Quimper,48.0,-4.1,51.8,100,90,17.22,FR,1608258096
Erzin,36.96,36.2,52.0,72,0,8.99,TR,1608258097
Beyla,8.68,-8.63,69.37,84,97,4.03,GN,1608258098
Tooele,40.53,-112.3,32.0,95,90,2.77,US,1608257825
Āreka,7.07,37.7,55.4,40,83,6.11,ET,1608258100
Bagotville,-28.98,153.42,87.8,70,40,14.99,AU,1608258101
Kyra,49.58,111.98,-4.45,74,18,2.42,RU,1608258102
Besao,17.09,120.86,68.77,80,87,4.68,PH,1608258104
Manta,-0.95,-80.73,73.4,83,75,9.17,EC,1608258106
Palmer,42.16,-72.33,23.0,73,90,4.7,US,1608258107
Auki,-8.77,160.7,86.85,65,100,6.44,SB,1608258108
Husavik,66.04,-17.34,37.4,92,90,17.22,IS,1608258076
Plouzané,48.38,-4.62,51.8,100,90,23.04,FR,1608258110
Inuvik,68.35,-133.72,-27.4,66,76,3.36,CA,1608258070
Río Gallegos,-51.62,-69.22,53.6,54,90,13.87,AR,1608258112
Methóni,36.82,21.7,55.0,100,100,4.7,GR,1608258113
Callaway,30.15,-85.57,41.0,75,1,10.29,US,1608258115
Valle Hermoso,25.67,-97.83,55.4,62,5,3.36,MX,1608258116
Acurenam,1.03,10.65,67.77,98,100,4.0,GQ,1608258117
Manaure,11.78,-72.44,79.92,76,0,17.16,CO,1608258118
Artvin Province,41.17,41.83,46.4,87,75,9.17,TR,1608258119
Verkhnyaya Inta,65.98,60.31,0.48,94,100,5.99,RU,1608258120
Takoradze,4.88,-1.76,78.42,89,81,9.08,GH,1608258121
Belaya Gora,68.53,146.42,-9.67,91,99,2.53,RU,1608258122
Airai,-8.93,125.41,72.19,83,100,4.12,TL,1608258124
Shihezi,44.3,86.03,1.29,90,13,0.76,CN,1608258125
Mpika,-11.83,31.45,61.65,96,100,1.99,ZM,1608258126
Leh,34.17,77.58,-2.42,59,0,2.13,IN,1608258127
Port Blair,11.67,92.75,82.38,74,60,9.17,IN,1608258128
Novi Ligure,44.76,8.79,48.99,65,100,1.01,IT,1608258129
Quatre Cocos,-20.21,57.76,77.0,83,40,16.11,MU,1608258130
Batagay-Alyta,67.8,130.41,-25.37,85,100,0.31,RU,1608258131
Langsa,4.47,97.97,77.95,86,100,3.09,ID,1608258132
Marfino,55.7,37.38,33.01,97,75,8.95,RU,1608258134
Watrous,51.67,-105.47,28.4,86,39,19.46,CA,1608258135
Rāmshīr,30.89,49.41,59.0,93,40,6.93,IR,1608258136
Bagdarin,54.43,113.6,-9.6,78,100,2.42,RU,1608258137
Oodweyne,9.41,45.06,64.35,67,0,6.26,SO,1608258138
Umluj,25.02,37.27,68.65,42,6,9.78,SA,1608258139
Oriximiná,-1.77,-55.87,77.77,79,9,2.13,BR,1608258140
Gerede,40.8,32.2,31.14,98,100,1.57,TR,1608257942
Tutayev,57.89,39.54,28.4,79,90,8.95,RU,1608258143
Belomorsk,64.52,34.77,16.72,97,3,1.23,RU,1608258144
Warrington,53.39,-2.58,53.01,93,93,19.46,GB,1608258145
Linxia Chengguanzhen,35.6,103.21,18.46,89,100,0.54,CN,1608258034
Caçapava do Sul,-30.51,-53.49,64.96,100,0,5.93,BR,1608258147
Druskininkai,54.02,23.97,35.6,94,100,8.97,LT,1608258148
Killybegs,54.63,-8.45,46.99,93,100,3.0,IE,1608258149
Unaí,-16.36,-46.91,71.96,84,77,2.06,BR,1608258150
Vera Cruz,-12.63,-41.03,69.71,83,61,5.14,BR,1608258151
Chabahar,25.29,60.64,66.78,47,100,5.35,IR,1608258153
Yerbogachën,61.28,108.01,-5.53,90,100,5.99,RU,1608258154
Trat,12.5,102.5,82.99,61,0,9.55,TH,1608258155
Denpasar,-8.65,115.22,84.2,83,40,10.29,ID,1608258156
Matara,5.95,80.54,76.78,83,78,1.59,LK,1608258157
Comodoro Rivadavia,-45.87,-67.5,57.2,82,0,2.24,AR,1608258036
Phang Nga,8.45,98.53,82.4,74,20,2.24,TH,1608257970
Lata,40.16,-8.33,48.2,93,20,5.82,PT,1608258161
Kieta,-6.22,155.63,84.47,76,28,8.84,PG,1608258162
Nuuk,64.18,-51.72,24.8,92,100,17.22,GL,1608258149
Amalāpuram,16.58,82.02,73.4,83,20,4.7,IN,1608258164
Bonavista,48.65,-53.11,28.4,100,100,3.36,CA,1608258166
Mayo,38.89,-76.51,33.8,80,1,3.36,US,1608258167
Port Angeles,48.12,-123.43,46.99,87,1,5.82,US,1608258168
City of San Pedro,14.35,121.02,84.99,78,75,2.24,PH,1608258169
Porto Nacional,-10.71,-48.42,82.4,69,40,4.7,BR,1608258170
Esim,4.87,-2.24,78.53,88,13,9.26,GH,1608258173
Baiersbronn,48.5,8.38,39.99,92,69,1.5,DE,1608258174
Vila Velha,-20.33,-40.29,77.0,78,0,5.82,BR,1608258070
Shar,49.59,81.05,7.72,89,100,17.38,KZ,1608258176
Nanortalik,60.14,-45.24,30.78,95,46,3.74,GL,1608258177
Am Timan,11.03,20.28,65.62,27,49,7.74,TD,1608258178
Portland,45.52,-122.68,46.0,70,1,3.49,US,1608258060
Kapiri Mposhi,-13.97,28.68,65.01,96,100,4.74,ZM,1608258180
Zhigansk,66.77,123.37,-40.14,81,100,1.86,RU,1608258181
Qidong,31.81,121.66,46.99,72,100,11.43,CN,1608258184
Dunhua,43.37,128.24,6.75,86,88,13.53,CN,1608258185
Santiago del Estero,-27.8,-64.26,82.99,52,47,7.0,AR,1608258186
Esmeraldas,-19.76,-44.31,68.0,88,75,2.24,BR,1608258188
Moyale,3.52,39.06,65.84,53,81,9.08,KE,1608257893
Dalnerechensk,45.93,133.72,4.37,91,96,11.07,RU,1608258190
Fort Nelson,58.81,-122.7,-16.6,68,75,3.36,CA,1608258191
Wonthaggi,-38.6,145.59,64.0,63,38,17.56,AU,1608258192
Balkhash,46.84,74.98,-4.0,83,0,4.47,KZ,1608258193
Muravlenko,63.79,74.52,-3.75,92,12,11.92,RU,1608258194
Netrakona,24.88,90.72,62.67,54,0,3.11,BD,1608258196
Basoko,1.24,23.62,72.54,87,5,3.58,CD,1608258197
Clovis,36.83,-119.7,53.6,66,20,4.7,US,1608257948
Lungi,9.22,-12.68,75.31,90,94,3.29,SL,1608258199
Chitral,35.85,71.79,20.39,42,0,10.16,PK,1608258201
Gondanglegi,-7.75,112.01,79.25,82,58,9.6,ID,1608258202
Faya,18.39,42.45,53.6,93,40,11.41,SA,1608258203
La Mata,8.08,-80.88,73.76,86,0,3.98,PA,1608258204
San Vicente,-26.62,-54.13,67.23,94,24,1.32,AR,1608258205
Camapuã,-19.53,-54.04,75.63,80,71,6.67,BR,1608258207
Acton Vale,45.65,-72.57,12.0,85,23,3.36,CA,1608258208
Tateyama,34.98,139.87,52.0,50,20,6.93,JP,1608258209
San Quintín,30.48,-115.95,59.25,77,100,13.73,MX,1608258210
Nanning,22.82,108.32,44.6,87,90,8.95,CN,1608258211
Bouaké,7.69,-5.02,75.2,83,50,9.17,CI,1608258212
Igrim,63.19,64.42,8.62,90,100,5.48,RU,1608258213
Ilulissat,69.22,-51.1,17.6,67,66,8.05,GL,1608258214
Juba,4.85,31.58,75.81,29,0,4.65,SS,1608258215
Anori,-3.77,-61.64,75.22,92,95,1.21,BR,1608258216
Limbang,4.75,115.0,82.4,78,75,6.93,MY,1608258218
Xai-Xai,-25.05,33.64,74.28,86,96,5.5,MZ,1608258219
San Cristobal,7.77,-72.22,64.89,90,79,1.54,VE,1608257937
Fengkou,30.08,113.27,44.06,56,0,9.82,CN,1608258221
Santa Cruz de la Sierra,-17.8,-63.17,77.0,88,22,5.82,BO,1608258134
Rzhaksa,52.13,42.03,32.29,97,99,14.03,RU,1608258223
Ust-Tsilma,65.44,52.15,5.14,94,8,4.43,RU,1608258224
Alberton,46.82,-64.07,28.4,86,100,23.04,CA,1608258225
Saint-François,46.42,3.91,41.0,100,20,2.59,FR,1608258228
Esil,51.96,66.4,9.5,93,100,16.8,KZ,1608258229
Bratsk,56.13,101.61,5.0,84,75,4.47,RU,1608258231
Nieves,15.33,120.95,78.8,78,75,11.41,PH,1608258232
Lucapa,-8.42,20.74,64.9,98,100,3.31,AO,1608258136
Marsala,37.8,12.44,59.0,76,40,3.36,IT,1608258234
